[
  {
    "id": 1,
    "name": "Çankaya Bulvarı",
    "city": "Ankara",
    "category": "Portre",
    "lens": "135mm F2",
    "goldenHour": "17:50",
    "direction": "Güney-Batı",
    "rating": 5,
    "description": "Geniş kaldırımlar ve ağaç sıraları ile muhteşem altın saat ışığı. Uzun odak için ideal perspektif.",
    "tags": ["Altın Saat", "135mm Uygun", "Yaya"],
    "lat": 39.9028,
    "lng": 32.8589,
    "image": "🏙️"
  },
  {
    "id": 2,
    "name": "Atatürk Orman Çiftliği",
    "city": "Ankara",
    "category": "Otomobil Çekimi",
    "lens": "85mm F1.8",
    "goldenHour": "18:10",
    "direction": "Doğu",
    "rating": 4,
    "description": "Uzun düz yollar ve çevre yeşilliği ile otomobil çekimleri için mükemmel. Sabah saatlerinde az trafik.",
    "tags": ["Otomobil Çekimi", "Geniş Alan", "Sabah"],
    "lat": 39.9547,
    "lng": 32.8116,
    "image": "🚗"
  },
  {
    "id": 3,
    "name": "Anıtkabir Çevresi",
    "city": "Ankara",
    "category": "Portre",
    "lens": "135mm F2",
    "goldenHour": "07:28",
    "direction": "Kuzey-Doğu",
    "rating": 5,
    "description": "Tarihi mimari arka planlar ve açık alan kompozisyonları. Sabah altın saatinde olağanüstü ışık kalitesi.",
    "tags": ["135mm Uygun", "Altın Saat", "Tarihi"],
    "lat": 39.9257,
    "lng": 32.8379,
    "image": "🏛️"
  },
  {
    "id": 4,
    "name": "Kugulu Park",
    "city": "Ankara",
    "category": "Portre",
    "lens": "85mm F1.8",
    "goldenHour": "17:45",
    "direction": "Batı",
    "rating": 4,
    "description": "Su yansımaları ve doğal bokeh için ideal. Göl kenarında güneş batımı pozları çekilebilir.",
    "tags": ["Su Yansıması", "Doğal", "Bokeh"],
    "lat": 39.8887,
    "lng": 32.8602,
    "image": "🦢"
  },
  {
    "id": 5,
    "name": "Gençlik Parkı",
    "city": "Ankara",
    "category": "Portre",
    "lens": "50mm F1.4",
    "goldenHour": "18:00",
    "direction": "Güney",
    "rating": 3,
    "description": "Kent merkezinde ulaşımı kolay lokasyon. Çeşitli arka plan seçenekleri ve iyi ışık koridorları mevcut.",
    "tags": ["Geniş Açı", "Kentsel", "Kolay Erişim"],
    "lat": 39.9310,
    "lng": 32.8532,
    "image": "🌳"
  },
  {
    "id": 6,
    "name": "Çankaya Köşkü Yolu",
    "city": "Ankara",
    "category": "Otomobil Çekimi",
    "lens": "135mm F2",
    "goldenHour": "07:35",
    "direction": "Kuzey",
    "rating": 5,
    "description": "Virajlı yollar ve çam ormanı arka planı. Aksiyon çekimleri için panning fırsatı sunan mükemmel ıssız hat.",
    "tags": ["Otomobil Çekimi", "135mm Uygun", "Orman"],
    "lat": 39.8791,
    "lng": 32.8553,
    "image": "🛣️"
  }
]
